City,Business Name,Contact Phone,Physical Address,Website / Social,Alliance Status,Latitude,Longitude
New Delhi,Local Stationery (Osm Ref),Not Listed,New Delhi,Not Listed,Prospect (Phase 1 B2B),28.5097857,77.1682199
New Delhi,Local Stationery (Osm Ref),Not Listed,New Delhi,Not Listed,Prospect (Phase 1 B2B),28.5338394,77.1524614
New Delhi,Local Stationery (Osm Ref),Not Listed,New Delhi,Not Listed,Prospect (Phase 1 B2B),28.6787262,77.2069718
New Delhi,Local Stationery (Osm Ref),Not Listed,New Delhi,Not Listed,Prospect (Phase 1 B2B),28.6785742,77.207262
New Delhi,Local Stationery (Osm Ref),Not Listed,New Delhi,Not Listed,Prospect (Phase 1 B2B),28.6931761,77.2109983
New Delhi,Local Stationery (Osm Ref),Not Listed,New Delhi,Not Listed,Prospect (Phase 1 B2B),28.6851939,77.1316204
New Delhi,Local Stationery (Osm Ref),Not Listed,New Delhi,Not Listed,Prospect (Phase 1 B2B),28.6350506,77.3037816
New Delhi,Local Copyshop (Osm Ref),Not Listed,Delhi,Not Listed,Prospect (Phase 1 B2B),28.6278151,77.3080711
New Delhi,Local Copyshop (Osm Ref),Not Listed,Delhi,Not Listed,Prospect (Phase 1 B2B),28.6278622,77.3082254
New Delhi,Local Stationery (Osm Ref),Not Listed,Delhi,Not Listed,Prospect (Phase 1 B2B),28.6278531,77.3081905
New Delhi,Local Copyshop (Osm Ref),Not Listed,New Delhi,Not Listed,Prospect (Phase 1 B2B),28.542235,77.2251838
New Delhi,Krissh Travel World,Not Listed,New Delhi,Not Listed,Prospect (Phase 1 B2B),28.6022363,77.1870641
New Delhi,Vijay Stationery Mart,+91-93122-41116;+91-99999-29434;+91-11-2611-3514,"Malcha Marg, New Delhi",Not Listed,Prospect (Phase 1 B2B),28.6023484,77.1869334
New Delhi,Local Copyshop (Osm Ref),Not Listed,New Delhi,Not Listed,Prospect (Phase 1 B2B),28.6022175,77.1870861
New Delhi,M. Business Centre,+91-11-4168-0106,New Delhi,Not Listed,Prospect (Phase 1 B2B),28.6023212,77.1869652
New Delhi,Star Telecom Centre,+91-98113-27478,New Delhi,Not Listed,Prospect (Phase 1 B2B),28.6118217,77.288843
New Delhi,Capital Book Agency,+91-011-2923-6380;+91-011-4670-2221,New Delhi,Not Listed,Prospect (Phase 1 B2B),28.5528542,77.2423291
New Delhi,Arish Enterprises,Not Listed,New Delhi,Not Listed,Prospect (Phase 1 B2B),28.669407,77.32889
New Delhi,Kamat Stationery and Photostat,Not Listed,New Delhi,Not Listed,Prospect (Phase 1 B2B),28.5064729,77.1995941
New Delhi,Friends Digital Print Solutions,+91-98130-79426;+91-95606-98864,New Delhi,Not Listed,Prospect (Phase 1 B2B),28.520261,77.20258
New Delhi,New Delhi Stationery Mart,+91-11-4455-6677,New Delhi,https://jainbookagency.com,Prospect (Phase 1 B2B),28.6343926,77.2200051
New Delhi,Royal Stationers,Not Listed,New Delhi,Not Listed,Prospect (Phase 1 B2B),28.5357248,77.2119334
New Delhi,chauhan stationers,Not Listed,New Delhi,Not Listed,Prospect (Phase 1 B2B),28.5327763,77.2188584
New Delhi,shree ji solutions,Not Listed,New Delhi,Not Listed,Prospect (Phase 1 B2B),28.5309026,77.217192
New Delhi,gupta stationary,Not Listed,New Delhi,Not Listed,Prospect (Phase 1 B2B),28.5353372,77.2168065
New Delhi,singh brothers,Not Listed,New Delhi,Not Listed,Prospect (Phase 1 B2B),28.5344088,77.2169234
New Delhi,Sardarji stationery shop,Not Listed,New Delhi,Not Listed,Prospect (Phase 1 B2B),28.5332007,77.2212213
New Delhi,raj printer,Not Listed,New Delhi,Not Listed,Prospect (Phase 1 B2B),28.5345636,77.2210084
New Delhi,Variety mart,Not Listed,New Delhi,Not Listed,Prospect (Phase 1 B2B),28.5352085,77.2167495
New Delhi,C.M.  sticker & labels,Not Listed,New Delhi,Not Listed,Prospect (Phase 1 B2B),28.5330276,77.2215657
New Delhi,Local Stationery (Osm Ref),Not Listed,New Delhi,Not Listed,Prospect (Phase 1 B2B),28.6297134,77.2319622
New Delhi,Khurana Digital Color Solution,+91-11-2642-4919;+91-11-2644-8414;+91-11-2644-8415;+91-11-2644-8416;+91-98110-18246;+91-98101-14286;+91-93109-40500,New Delhi,https://khuranadcs.com/,Prospect (Phase 1 B2B),28.5481888,77.2518593
New Delhi,South Delhi Stationery,+91 97116 26429,New Delhi,Not Listed,Prospect (Phase 1 B2B),28.5482379,77.252019
New Delhi,Mehta Bandhu,Not Listed,New Delhi,Not Listed,Prospect (Phase 1 B2B),28.5483135,77.2523512
New Delhi,Dharma Mobile and Stationery,+91-99904-00438;+91-85276-81267,"IGNOU Road, New Delhi",Not Listed,Prospect (Phase 1 B2B),28.5076756,77.2003232
New Delhi,Achiever's,+91-11-4914-9769,New Delhi,Not Listed,Prospect (Phase 1 B2B),28.5354531,77.210832
New Delhi,HRKA Stationers,Not Listed,New Delhi,Not Listed,Prospect (Phase 1 B2B),28.5144918,77.2048139
New Delhi,Local Stationery (Osm Ref),Not Listed,New Delhi,Not Listed,Prospect (Phase 1 B2B),28.6295607,77.2325052
New Delhi,Local Stationery (Osm Ref),Not Listed,New Delhi,Not Listed,Prospect (Phase 1 B2B),28.5166286,77.2005019
New Delhi,Gyan Book Centre,+91-85880-58174;+91-85880-56019,New Delhi,Not Listed,Prospect (Phase 1 B2B),28.5178438,77.1985862
New Delhi,Paper Theatre,Not Listed,New Delhi,Not Listed,Prospect (Phase 1 B2B),28.571112,77.2391077
New Delhi,Empire Mart,+91-11-2642-7231;+91-11-2628-7211;+91-2628-7212;+91-98112-42587,New Delhi,https://empiremart.in/,Prospect (Phase 1 B2B),28.5483007,77.2521558
New Delhi,Naveen Photostat and Stationery,Not Listed,New Delhi,Not Listed,Prospect (Phase 1 B2B),28.5084419,77.2008066
New Delhi,Bansal Stationers,Not Listed,New Delhi,Not Listed,Prospect (Phase 1 B2B),28.5183391,77.2062138
New Delhi,Kumar Printing,Not Listed,New Delhi,Not Listed,Prospect (Phase 1 B2B),28.5473742,77.2503389
New Delhi,Gupta Stationeries,+91 98102 60696,"IGNOU Road, New Delhi",Not Listed,Prospect (Phase 1 B2B),28.5080393,77.2006161
New Delhi,International Book Mart,Not Listed,New Delhi,Not Listed,Prospect (Phase 1 B2B),28.5407987,77.2570177
New Delhi,Arora Stationery,+91 981177 3004;+91 98104 34314;+91 99908 25494,New Delhi,Not Listed,Prospect (Phase 1 B2B),28.5406985,77.2495663
New Delhi,Local Copyshop (Osm Ref),Not Listed,New Delhi,Not Listed,Prospect (Phase 1 B2B),28.5425133,77.2525089
New Delhi,Hind Book Center and Photostat,+91-96543-53111;+91-96544-51541,"IGNOU Road, New Delhi",http://hindbookcenter.com,Prospect (Phase 1 B2B),28.5192132,77.2063372
New Delhi,Sai Sharan Stationery and Gift Gallery,+91-77038-04148,New Delhi,Not Listed,Prospect (Phase 1 B2B),28.5061984,77.2003565
New Delhi,Student Store,Not Listed,New Delhi,Not Listed,Prospect (Phase 1 B2B),28.6220257,77.2920007
New Delhi,Local Copyshop (Osm Ref),Not Listed,New Delhi,Not Listed,Prospect (Phase 1 B2B),28.6234142,77.2925332
New Delhi,Local Stationery (Osm Ref),Not Listed,New Delhi,Not Listed,Prospect (Phase 1 B2B),28.6234194,77.292578
New Delhi,Yukta Staionary Shop,Not Listed,New Delhi,Not Listed,Prospect (Phase 1 B2B),28.6871508,77.1835083
New Delhi,Local Stationery (Osm Ref),Not Listed,New Delhi,Not Listed,Prospect (Phase 1 B2B),28.6917948,77.2076598
New Delhi,Local Stationery (Osm Ref),Not Listed,New Delhi,Not Listed,Prospect (Phase 1 B2B),28.6919142,77.2073932
New Delhi,Local Stationery (Osm Ref),Not Listed,New Delhi,Not Listed,Prospect (Phase 1 B2B),28.6920123,77.2071387
New Delhi,Local Stationery (Osm Ref),Not Listed,New Delhi,Not Listed,Prospect (Phase 1 B2B),28.6922764,77.2064527
New Delhi,Local Stationery (Osm Ref),Not Listed,New Delhi,Not Listed,Prospect (Phase 1 B2B),28.6921606,77.2067245
New Delhi,Malik Electrical Contractor,+91 11 2247 9849;+91 98106 51876;+91 82878 90786,"Gurudwara Road, New Delhi",Not Listed,Prospect (Phase 1 B2B),28.6226121,77.2904102
New Delhi,Ndcomm Cyberzone,8826104104,"Block A, Dilshad Garden, Delhi",Not Listed,Prospect (Phase 1 B2B),28.6808352,77.3131267
New Delhi,Diksha Stationery and Gift Shop,Not Listed,New Delhi,Not Listed,Prospect (Phase 1 B2B),28.5202454,77.1797943
New Delhi,Wadhwa Store,Not Listed,New Delhi,Not Listed,Prospect (Phase 1 B2B),28.5641804,77.2587197
New Delhi,Uma Computer,+91-850-688-9090,New Delhi,Not Listed,Prospect (Phase 1 B2B),28.6234472,77.2925656
New Delhi,Narang Photostat,Not Listed,New Delhi,Not Listed,Prospect (Phase 1 B2B),28.6008529,77.2257712
New Delhi,Logani,Not Listed,New Delhi,Not Listed,Prospect (Phase 1 B2B),28.6007355,77.225742
New Delhi,Local Copyshop (Osm Ref),Not Listed,New Delhi,Not Listed,Prospect (Phase 1 B2B),28.7325795,77.1612139
New Delhi,Local Stationery (Osm Ref),Not Listed,New Delhi,Not Listed,Prospect (Phase 1 B2B),28.7315287,77.1629143
New Delhi,Balaji sanitary shop,Not Listed,New Delhi,Not Listed,Prospect (Phase 1 B2B),28.7211202,77.1686145
New Delhi,Onkar Stationary,+91989901182,"Radha Swami Satsang Marg, New Delhi",Not Listed,Prospect (Phase 1 B2B),28.7230399,77.1673641
New Delhi,Shyam Electrostat,+91-11-4305-4099;+91-11-2246-1419;+91-11-2204-1419;+91-11-2254-1419,New Delhi,Not Listed,Prospect (Phase 1 B2B),28.6355441,77.2853946
New Delhi,Himanshi Photostate,Not Listed,New Delhi,Not Listed,Prospect (Phase 1 B2B),28.6781389,77.208167
New Delhi,Radhey Radhey Stationery,Not Listed,New Delhi,Not Listed,Prospect (Phase 1 B2B),28.7201488,77.1727167
New Delhi,Studio Parkash,Not Listed,New Delhi,Not Listed,Prospect (Phase 1 B2B),28.5370509,77.2127224
New Delhi,KD Ventures,Not Listed,New Delhi,Not Listed,Prospect (Phase 1 B2B),28.5356395,77.2168331
New Delhi,Chunni Lal Hazari Lal,+91-98110-64058;+91-98105-76698,New Delhi,Not Listed,Prospect (Phase 1 B2B),28.63463,77.2206734
New Delhi,Anis Hello Point,Not Listed,New Delhi,Not Listed,Prospect (Phase 1 B2B),28.622901,77.2900947
New Delhi,Terminal Communication,Not Listed,New Delhi,Not Listed,Prospect (Phase 1 B2B),28.5379422,77.2087646
New Delhi,Local Stationery (Osm Ref),Not Listed,New Delhi,Not Listed,Prospect (Phase 1 B2B),28.6221233,77.2926922
New Delhi,Aggarwal Book Depot,Not Listed,"Rajan Babu Road, Adarsh Nagar, Delhi",Not Listed,Prospect (Phase 1 B2B),28.7179551,77.171419
New Delhi,Pandey book,Not Listed,New Delhi,Not Listed,Prospect (Phase 1 B2B),28.631889,77.2797399
New Delhi,Parash stationary,Not Listed,New Delhi,Not Listed,Prospect (Phase 1 B2B),28.6315258,77.2771689
New Delhi,Stationary,Not Listed,New Delhi,Not Listed,Prospect (Phase 1 B2B),28.4949929,77.3252325
New Delhi,Gupta Book Centre,Not Listed,New Delhi,Not Listed,Prospect (Phase 1 B2B),28.548646,77.2541102
New Delhi,print shop,Not Listed,New Delhi,Not Listed,Prospect (Phase 1 B2B),28.5448643,77.1608468
New Delhi,Photocopy and cyber cafe,Not Listed,New Delhi,Not Listed,Prospect (Phase 1 B2B),28.538026,77.2087662
New Delhi,xerox electro Shop,Not Listed,New Delhi,Not Listed,Prospect (Phase 1 B2B),28.6451298,77.241797
New Delhi,Dream Education Centre,Not Listed,New Delhi,Not Listed,Prospect (Phase 1 B2B),28.5113571,77.108964
New Delhi,Friends Digital,Not Listed,New Delhi,Not Listed,Prospect (Phase 1 B2B),28.5487047,77.2524183
New Delhi,AP Graphics,Not Listed,New Delhi,Not Listed,Prospect (Phase 1 B2B),28.5486696,77.2523397
New Delhi,Rohit Xerox And Stationery Store,Not Listed,New Delhi,Not Listed,Prospect (Phase 1 B2B),28.6852282,77.2099701
New Delhi,Printo,Not Listed,"Satya Niketan, New Delhi",Not Listed,Prospect (Phase 1 B2B),28.5885965,77.1689778
New Delhi,Manish Photocopy,Not Listed,New Delhi,Not Listed,Prospect (Phase 1 B2B),28.5878729,77.169021
New Delhi,Bansal Stationers,Not Listed,New Delhi,Not Listed,Prospect (Phase 1 B2B),28.5874673,77.1690732
New Delhi,Pratibha Photostat,Not Listed,New Delhi,Not Listed,Prospect (Phase 1 B2B),28.5875103,77.1690414
New Delhi,RV Prints,Not Listed,New Delhi,Not Listed,Prospect (Phase 1 B2B),28.5874926,77.1690563
New Delhi,Local Copyshop (Osm Ref),Not Listed,New Delhi,Not Listed,Prospect (Phase 1 B2B),28.6295756,77.2325011
New Delhi,Local Stationery (Osm Ref),Not Listed,New Delhi,Not Listed,Prospect (Phase 1 B2B),28.5949596,77.1226989
New Delhi,Jain Electronics,Not Listed,New Delhi,Not Listed,Prospect (Phase 1 B2B),28.5950959,77.1227637
New Delhi,Deutech Computer Centre,Not Listed,New Delhi,Not Listed,Prospect (Phase 1 B2B),28.5944206,77.1219984
New Delhi,M.S. Trading Co.,Not Listed,New Delhi,Not Listed,Prospect (Phase 1 B2B),28.5944322,77.1220045
New Delhi,Krishna Stationary,Not Listed,New Delhi,Not Listed,Prospect (Phase 1 B2B),28.5939315,77.1221839
New Delhi,Prakash Pustak Bhandar,Not Listed,New Delhi,Not Listed,Prospect (Phase 1 B2B),28.5945061,77.1224625
New Delhi,Khushboo Photostate,Not Listed,New Delhi,Not Listed,Prospect (Phase 1 B2B),28.5937304,77.1220995
New Delhi,Imperial Book Depot,Not Listed,New Delhi,Not Listed,Prospect (Phase 1 B2B),28.5964119,77.1333074
New Delhi,Rastogi Book Depot,Not Listed,New Delhi,Not Listed,Prospect (Phase 1 B2B),28.5964139,77.1334181
New Delhi,Local Stationery (Osm Ref),Not Listed,New Delhi,Not Listed,Prospect (Phase 1 B2B),28.6308259,77.2774967
New Delhi,Shivji Electrostat,Not Listed,New Delhi,Not Listed,Prospect (Phase 1 B2B),28.644485,77.2005805
New Delhi,Cool Corner,Not Listed,New Delhi,Not Listed,Prospect (Phase 1 B2B),28.5924873,77.1204428
New Delhi,AP Enterprises,Not Listed,New Delhi,Not Listed,Prospect (Phase 1 B2B),28.5925452,77.1203063
New Delhi,Taran Book Depot,Not Listed,New Delhi,Not Listed,Prospect (Phase 1 B2B),28.5924986,77.120409
New Delhi,Upahar,Not Listed,New Delhi,Not Listed,Prospect (Phase 1 B2B),28.6447196,77.2011773
New Delhi,Manjit Radios And Microsoft Print Arts,Not Listed,New Delhi,Not Listed,Prospect (Phase 1 B2B),28.5918524,77.1205793
New Delhi,Priyanaka Stationers,Not Listed,New Delhi,Not Listed,Prospect (Phase 1 B2B),28.6447031,77.2020168
New Delhi,Gurukrishna Pustak Bhandar,Not Listed,New Delhi,Not Listed,Prospect (Phase 1 B2B),28.6598828,77.2828669
New Delhi,Supriya and Nisha Stationery,Not Listed,New Delhi,Not Listed,Prospect (Phase 1 B2B),28.7214232,77.1364272
New Delhi,Computer Online Service,Not Listed,"Saraswati Marg, New Delhi",Not Listed,Prospect (Phase 1 B2B),28.6482291,77.189026
New Delhi,Kashyap Photo Copy,+91-11-4707-0641,"Gali Number 20, Madhu Vihar, Delhi",Not Listed,Prospect (Phase 1 B2B),28.6365399,77.3047389
New Delhi,Punit Xerox Centre,Not Listed,New Delhi,Not Listed,Prospect (Phase 1 B2B),28.6963213,77.2107223
New Delhi,Rameshwari Photocopy Service,Not Listed,New Delhi,Not Listed,Prospect (Phase 1 B2B),28.6846424,77.2087382
New Delhi,Crown Photostat,Not Listed,New Delhi,Not Listed,Prospect (Phase 1 B2B),28.6981987,77.205543
New Delhi,Madan Stamp House,+91 98110 46975,New Delhi,Not Listed,Prospect (Phase 1 B2B),28.6981881,77.2055468
New Delhi,Local Copyshop (Osm Ref),Not Listed,New Delhi,Not Listed,Prospect (Phase 1 B2B),28.6981013,77.2051206
New Delhi,Gulani Brothers,+91 93121 25847,New Delhi,Not Listed,Prospect (Phase 1 B2B),28.6978663,77.2064293
New Delhi,Sanjay Enterprises,Not Listed,New Delhi,Not Listed,Prospect (Phase 1 B2B),28.6575382,77.2037215
New Delhi,Ridhi Sidhi Photostat,Not Listed,"Laxmi Nagar, New Delhi",Not Listed,Prospect (Phase 1 B2B),28.6281875,77.2781883
New Delhi,Wasim Stationers,Not Listed,"Gali Number 2, Mandawali Fazalpur, Delhi",Not Listed,Prospect (Phase 1 B2B),28.6232018,77.2905804
New Delhi,Mayur Store,Not Listed,New Delhi,Not Listed,Prospect (Phase 1 B2B),28.7216074,77.1364322
New Delhi,Haribhakt Printers,Not Listed,"Buddha Marg, Mandawali, Delhi",Not Listed,Prospect (Phase 1 B2B),28.6236779,77.289216
New Delhi,Shree Ji Stationary,Not Listed,New Delhi,Not Listed,Prospect (Phase 1 B2B),28.599816,77.3175836
New Delhi,Local Copyshop (Osm Ref),Not Listed,New Delhi,Not Listed,Prospect (Phase 1 B2B),28.686068,77.2082003
New Delhi,Maithali Stationary,Not Listed,New Delhi,Not Listed,Prospect (Phase 1 B2B),28.6010974,77.3223192
New Delhi,Capital Book Agency,Not Listed,New Delhi,Not Listed,Prospect (Phase 1 B2B),28.5528744,77.2422867
New Delhi,XS Stationers,Not Listed,New Delhi,Not Listed,Prospect (Phase 1 B2B),28.5531994,77.2407049
New Delhi,Local Copyshop (Osm Ref),Not Listed,New Delhi,Not Listed,Prospect (Phase 1 B2B),28.591437,77.1664962
New Delhi,Local Stationery (Osm Ref),Not Listed,New Delhi,Not Listed,Prospect (Phase 1 B2B),28.5665101,77.2519651
New Delhi,Kunwar Pal Singh Photocopy Shop,Not Listed,New Delhi,Not Listed,Prospect (Phase 1 B2B),28.5491835,77.1837252
New Delhi,Local Copyshop (Osm Ref),Not Listed,New Delhi,Not Listed,Prospect (Phase 1 B2B),28.5392493,77.2635872
New Delhi,The Prism Printers,Not Listed,"Shaheed Baghat Singh Marg, New Delhi",Not Listed,Prospect (Phase 1 B2B),28.6332542,77.2071538
New Delhi,Studio Sahni,Not Listed,New Delhi,Not Listed,Prospect (Phase 1 B2B),28.632514,77.2063043
New Delhi,Shiv Shankar,Not Listed,New Delhi,Not Listed,Prospect (Phase 1 B2B),28.6324877,77.2066318
New Delhi,Office Document Center,Not Listed,New Delhi,Not Listed,Prospect (Phase 1 B2B),28.6325074,77.2064737
New Delhi,Local Copyshop (Osm Ref),Not Listed,New Delhi,Not Listed,Prospect (Phase 1 B2B),28.6485832,77.1777873
New Delhi,Delta Stationers,Not Listed,New Delhi,Not Listed,Prospect (Phase 1 B2B),28.5708852,77.3248844
New Delhi,Itsy Bitsy,Not Listed,New Delhi,Not Listed,Prospect (Phase 1 B2B),28.5685465,77.3247544
New Delhi,BB Superstore,Not Listed,New Delhi,Not Listed,Prospect (Phase 1 B2B),28.5701564,77.3264054
New Delhi,Dwivedi Books and Stationery,Not Listed,New Delhi,Not Listed,Prospect (Phase 1 B2B),28.6231726,77.2917983
New Delhi,Citizen Book Centre,Not Listed,New Delhi,Not Listed,Prospect (Phase 1 B2B),28.6824252,77.1999654
New Delhi,Gupta Book House,Not Listed,New Delhi,Not Listed,Prospect (Phase 1 B2B),28.6817761,77.1988851
New Delhi,Stop N Shop,Not Listed,New Delhi,Not Listed,Prospect (Phase 1 B2B),28.6816622,77.1987141
New Delhi,Aggarwal & Sons,Not Listed,New Delhi,Not Listed,Prospect (Phase 1 B2B),28.6803186,77.2031926
New Delhi,Bhatia Books & Stationery Store,Not Listed,New Delhi,Not Listed,Prospect (Phase 1 B2B),28.6800815,77.2028587
New Delhi,Sumer,+919354279273,New Delhi,Not Listed,Prospect (Phase 1 B2B),28.6791011,77.2010148
New Delhi,Dhawan,Not Listed,New Delhi,Not Listed,Prospect (Phase 1 B2B),28.649593,77.1560578
New Delhi,Raju Stationers,Not Listed,New Delhi,Not Listed,Prospect (Phase 1 B2B),28.6338315,77.2235829
New Delhi,Pal Photostates,Not Listed,New Delhi,Not Listed,Prospect (Phase 1 B2B),28.6330205,77.2171782
New Delhi,A.D.R. Services,Not Listed,New Delhi,Not Listed,Prospect (Phase 1 B2B),28.6335142,77.2235476
New Delhi,Bhutani Art Press,Not Listed,New Delhi,Not Listed,Prospect (Phase 1 B2B),28.6341284,77.2236211
New Delhi,Kamal Stationer,Not Listed,New Delhi,Not Listed,Prospect (Phase 1 B2B),28.6337646,77.223684
New Delhi,Shivom Stationers,Not Listed,New Delhi,Not Listed,Prospect (Phase 1 B2B),28.6337338,77.223598
New Delhi,RD Stationary Mart and Gift Gallery,Not Listed,Delhi,Not Listed,Prospect (Phase 1 B2B),28.6079593,77.2923943
New Delhi,Local Copyshop (Osm Ref),Not Listed,New Delhi,Not Listed,Prospect (Phase 1 B2B),28.6870159,77.2137334
New Delhi,Gupta Stationery Mart,Not Listed,New Delhi,Not Listed,Prospect (Phase 1 B2B),28.6833566,77.2016321
New Delhi,Local Stationery (Osm Ref),Not Listed,New Delhi,Not Listed,Prospect (Phase 1 B2B),28.7215788,77.1413766
New Delhi,Madhuban Stationary,Not Listed,"Gali Number 16, New Delhi",Not Listed,Prospect (Phase 1 B2B),28.6043157,77.2928732
New Delhi,Jan Seva Kendra,Not Listed,New Delhi,Not Listed,Prospect (Phase 1 B2B),28.7289625,77.327862
New Delhi,Yadav Son's,Not Listed,New Delhi,Not Listed,Prospect (Phase 1 B2B),28.6817815,77.2048385
New Delhi,Raj Book Seller,Not Listed,New Delhi,Not Listed,Prospect (Phase 1 B2B),28.57351,77.2171011
New Delhi,Bhandari,Not Listed,New Delhi,Not Listed,Prospect (Phase 1 B2B),28.5734258,77.2174398
New Delhi,Jain Department Store,Not Listed,New Delhi,Not Listed,Prospect (Phase 1 B2B),28.7203096,77.1750387
New Delhi,Pradeep Xerox and Stationery Store,Not Listed,New Delhi,Not Listed,Prospect (Phase 1 B2B),28.6835062,77.2080847
New Delhi,Mahalakshmi & Company Stationery Shop,Not Listed,New Delhi,Not Listed,Prospect (Phase 1 B2B),28.6824167,77.2013423
New Delhi,Modern Book Depot,Not Listed,New Delhi,Not Listed,Prospect (Phase 1 B2B),28.5724682,77.1671913
New Delhi,Sitaram Stationers,+919810939394;+919650338339,New Delhi,https://sitaramstationers.com,Prospect (Phase 1 B2B),28.5685197,77.2429672
New Delhi,Gulati Book Depot,+91 8506995757,New Delhi,Not Listed,Prospect (Phase 1 B2B),28.5628032,77.1937473
New Delhi,Local Stationery (Osm Ref),Not Listed,New Delhi,Not Listed,Prospect (Phase 1 B2B),28.6138954,77.2090057
New Delhi,Modern Stationery,Not Listed,New Delhi,Not Listed,Prospect (Phase 1 B2B),28.6138954,77.2090057
New Delhi,Devender Hello Point,Not Listed,delhi,Not Listed,Prospect (Phase 1 B2B),28.6138954,77.2090057
New Delhi,Local Stationery (Osm Ref),Not Listed,New Delhi,Not Listed,Prospect (Phase 1 B2B),28.6138954,77.2090057
New Delhi,Local Copyshop (Osm Ref),Not Listed,New Delhi,Not Listed,Prospect (Phase 1 B2B),28.6138954,77.2090057
New Delhi,Anand Book Corner,Not Listed,New Delhi,Not Listed,Prospect (Phase 1 B2B),28.6138954,77.2090057
New Delhi,Stationary,Not Listed,New Delhi,Not Listed,Prospect (Phase 1 B2B),28.6138954,77.2090057
Mumbai,Local Copyshop (Osm Ref),Not Listed,Mumbai,Not Listed,Prospect (Phase 1 B2B),19.1342589,72.9048681
Mumbai,H3 Print Shop,Not Listed,Mumbai,Not Listed,Prospect (Phase 1 B2B),19.1363084,72.9115135
Mumbai,H9 Print Shop,Not Listed,Mumbai,Not Listed,Prospect (Phase 1 B2B),19.1355293,72.9087226
Mumbai,H1 Print Shop,Not Listed,Mumbai,Not Listed,Prospect (Phase 1 B2B),19.1361347,72.9137613
Mumbai,H2 Print Shop,Not Listed,Mumbai,Not Listed,Prospect (Phase 1 B2B),19.1363362,72.9122361
Mumbai,H12 Print Shop,Not Listed,Mumbai,Not Listed,Prospect (Phase 1 B2B),19.1352092,72.9046513
Mumbai,H10 Print Shop,Not Listed,Mumbai,Not Listed,Prospect (Phase 1 B2B),19.12893,72.9155805
Mumbai,Jyoti Xerox,Not Listed,"Chapel Road, Mumbai",Not Listed,Prospect (Phase 1 B2B),19.0511136,72.8275243
Mumbai,Nayna Xerox and Stationery,Not Listed,"Chapel Road, Mumbai",Not Listed,Prospect (Phase 1 B2B),19.0514558,72.8285813
Mumbai,Babrawalla's,022 2643 4496,"Hill Road, Mumbai",Not Listed,Prospect (Phase 1 B2B),19.0551548,72.8306583
Mumbai,Print Hub,Not Listed,Mumbai,Not Listed,Prospect (Phase 1 B2B),19.123566,72.915487
Mumbai,Staplez Print Solution,Not Listed,Mumbai,Not Listed,Prospect (Phase 1 B2B),19.126347,72.917992
Mumbai,Chedda Print Shop,Not Listed,Mumbai,Not Listed,Prospect (Phase 1 B2B),19.127249,72.91891
Mumbai,Krishna Stationary,Not Listed,Mumbai,Not Listed,Prospect (Phase 1 B2B),19.116675,72.902094
Mumbai,Dev Stationary & Prints,Not Listed,Mumbai,Not Listed,Prospect (Phase 1 B2B),19.115379,72.90805
Mumbai,Impact Graphics,Not Listed,Mumbai,Not Listed,Prospect (Phase 1 B2B),19.117356,72.903866
Mumbai,Colorax Digital,Not Listed,Mumbai,Not Listed,Prospect (Phase 1 B2B),19.124454,72.918838
Mumbai,Unicorn Digital Arts,Not Listed,Mumbai,Not Listed,Prospect (Phase 1 B2B),19.125138,72.918334
Mumbai,Mahakali Stationary and Printer,Not Listed,Mumbai,Not Listed,Prospect (Phase 1 B2B),19.123014,72.912886
Mumbai,Kartik Digital Print,Not Listed,Mumbai,Not Listed,Prospect (Phase 1 B2B),19.125051,72.917085
Mumbai,Riddhi Siddhi Xerox,Not Listed,Mumbai,Not Listed,Prospect (Phase 1 B2B),19.12742,72.918986
Mumbai,Patel Digital Printers,Not Listed,Mumbai,Not Listed,Prospect (Phase 1 B2B),19.127892,72.919629
Mumbai,Local Stationery (Osm Ref),Not Listed,Mumbai,Not Listed,Prospect (Phase 1 B2B),19.171114,72.9564576
Mumbai,Local Stationery (Osm Ref),Not Listed,"Central Avenue, Mumbai",Not Listed,Prospect (Phase 1 B2B),19.1153256,72.9078424
Mumbai,Local Stationery (Osm Ref),Not Listed,"Central Avenue - from Tulip to Forest Street Junction, Mumbai",Not Listed,Prospect (Phase 1 B2B),19.1153705,72.9067852
Mumbai,Harsidh Stationery and Xerox,Not Listed,Mumbai,Not Listed,Prospect (Phase 1 B2B),19.1193832,72.9118063
Mumbai,Print vision,Not Listed,Mumbai,Not Listed,Prospect (Phase 1 B2B),19.1267641,72.918714
Mumbai,Lucky Stores,08062463716,"Central Avenue, Mumbai",Not Listed,Prospect (Phase 1 B2B),19.1153167,72.9078779
Mumbai,Patel Digital Printers,Not Listed,Mumbai,Not Listed,Prospect (Phase 1 B2B),19.127893,72.91957
Mumbai,Local Stationery (Osm Ref),Not Listed,Mumbai,Not Listed,Prospect (Phase 1 B2B),19.1151963,72.9078768
Mumbai,Local Stationery (Osm Ref),08062463716,"Powai Vihar Complex road, Mumbai",Not Listed,Prospect (Phase 1 B2B),19.1151093,72.9077389
Mumbai,Local Stationery (Osm Ref),Not Listed,Mumbai,Not Listed,Prospect (Phase 1 B2B),19.1179552,72.9048991
Mumbai,Garima Cyber Cafe and Print,Not Listed,Mumbai,Not Listed,Prospect (Phase 1 B2B),19.1192337,72.9115874
Mumbai,Local Stationery (Osm Ref),Not Listed,"Adi Sankaracharya Marg, Mumbai",Not Listed,Prospect (Phase 1 B2B),19.1281414,72.9197525
Mumbai,Local Copyshop (Osm Ref),Not Listed,"Adi Sankaracharya Marg, Mumbai",Not Listed,Prospect (Phase 1 B2B),19.1280522,72.9196892
Mumbai,Local Stationery (Osm Ref),Not Listed,"Hanuman road, Mumbai",Not Listed,Prospect (Phase 1 B2B),19.1277673,72.9193525
Mumbai,Local Stationery (Osm Ref),Not Listed,"Hanuman Road, Mumbai",Not Listed,Prospect (Phase 1 B2B),19.1276823,72.9195172
Mumbai,Local Stationery (Osm Ref),Not Listed,"Adi Sankaracharya Marg, Mumbai",Not Listed,Prospect (Phase 1 B2B),19.1269896,72.9186534
Mumbai,Local Stationery (Osm Ref),07045254085,Mumbai,Not Listed,Prospect (Phase 1 B2B),18.9446369,72.8346441
Mumbai,Local Stationery (Osm Ref),Not Listed,Mumbai,Not Listed,Prospect (Phase 1 B2B),19.0588005,72.8376102
Mumbai,Raj Xerox,Not Listed,Mumbai,Not Listed,Prospect (Phase 1 B2B),19.1098442,72.8336209
Mumbai,Glory,Not Listed,Mumbai,Not Listed,Prospect (Phase 1 B2B),19.1413989,72.8249103
Mumbai,Jatin Book Depot,Not Listed,Mumbai,Not Listed,Prospect (Phase 1 B2B),19.1417099,72.8249383
Mumbai,"Stationery: Xerox, Photocopy",Not Listed,Mumbai,Not Listed,Prospect (Phase 1 B2B),19.1280913,72.8252402
Mumbai,Shakti Stationery Shop,Not Listed,Mumbai,Not Listed,Prospect (Phase 1 B2B),19.080099,72.8549631
Mumbai,Print Evolution,Not Listed,Mumbai,Not Listed,Prospect (Phase 1 B2B),18.9976395,72.8254777
Mumbai,Sameer Stationery,Not Listed,"Aramnagar Part 1, Versova, Mumbai",Not Listed,Prospect (Phase 1 B2B),19.1300215,72.8166824
Mumbai,Anupam Stationery,Not Listed,Mumbai,Not Listed,Prospect (Phase 1 B2B),19.1201803,72.8487792
Mumbai,Paras Stationery,Not Listed,Mumbai,Not Listed,Prospect (Phase 1 B2B),19.120058,72.8487287
Mumbai,"Stationery Store, H-18",Not Listed,"Hostel 18 road, Mumbai",Not Listed,Prospect (Phase 1 B2B),19.1364217,72.9091602
Mumbai,Local Copyshop (Osm Ref),Not Listed,Mumbai,Not Listed,Prospect (Phase 1 B2B),19.1488195,72.8367019
Mumbai,Kanojiya Brothers,Not Listed,Mumbai,Not Listed,Prospect (Phase 1 B2B),19.1488245,72.8365712
Mumbai,Local Copyshop (Osm Ref),Not Listed,Mumbai,Not Listed,Prospect (Phase 1 B2B),19.1351501,72.8225079
Mumbai,New Popular stationery store,Not Listed,Mumbai,Not Listed,Prospect (Phase 1 B2B),19.0379284,72.9282807
Mumbai,Sai Krupa Novelty,Not Listed,Mumbai,Not Listed,Prospect (Phase 1 B2B),19.1467907,72.988852
Mumbai,Harsidhi Enterprises,Not Listed,Mumbai,Not Listed,Prospect (Phase 1 B2B),19.1643722,72.9378649
Mumbai,Nalanda Xerox,Not Listed,Mumbai,Not Listed,Prospect (Phase 1 B2B),19.0418714,72.9245405
Mumbai,Printpoint,Not Listed,"Juhu Church Road, Mumbai",Not Listed,Prospect (Phase 1 B2B),19.1104253,72.8267076
Mumbai,Chheda copy center,Not Listed,Mumbai,Not Listed,Prospect (Phase 1 B2B),19.1045876,72.8868255
Mumbai,Welcome Digi Print,Not Listed,Mumbai,Not Listed,Prospect (Phase 1 B2B),19.0844639,72.8893175
Mumbai,Amit Printers,Not Listed,Mumbai,Not Listed,Prospect (Phase 1 B2B),19.0820691,72.8963903
Mumbai,FedEx Office,Not Listed,Mumbai,Not Listed,Prospect (Phase 1 B2B),18.9391331,72.8383336
Mumbai,Mittal Xerox & Stationery Cenre,Not Listed,Mumbai,Not Listed,Prospect (Phase 1 B2B),19.0552794,72.8358425
Mumbai,TIRUPATI STATIONERY & XEROX,Not Listed,Mumbai,Not Listed,Prospect (Phase 1 B2B),19.1360761,72.8365677
Mumbai,Kirtida Stationary Shop,Not Listed,Mumbai,Not Listed,Prospect (Phase 1 B2B),19.1721445,72.9588863
Mumbai,Pixel Magic Studio,Not Listed,"SVP Nagar, Mumbai",Not Listed,Prospect (Phase 1 B2B),19.135719,72.8208536
Mumbai,A1 Stationery and Xerox,Not Listed,Mumbai,Not Listed,Prospect (Phase 1 B2B),19.1364864,72.8214666
Mumbai,A9 Digital Prints,Not Listed,Mumbai,Not Listed,Prospect (Phase 1 B2B),19.1366174,72.8322684
Mumbai,AHS Enterprise,Not Listed,Mumbai,Not Listed,Prospect (Phase 1 B2B),19.1365621,72.8322742
Mumbai,Shakti Stores,Not Listed,"Pipeline Road, Mumbai",Not Listed,Prospect (Phase 1 B2B),19.0807558,72.8533934
Mumbai,Sky Stationary and Xerox,Not Listed,Mumbai,Not Listed,Prospect (Phase 1 B2B),19.0264396,72.8546499
Mumbai,Digital Copier and Communication,Not Listed,Mumbai,Not Listed,Prospect (Phase 1 B2B),19.0264095,72.8561842
Mumbai,Dedeiya,Not Listed,Mumbai,Not Listed,Prospect (Phase 1 B2B),19.0649173,72.844463
Mumbai,Super enterprises stationary,Not Listed,Mumbai,Not Listed,Prospect (Phase 1 B2B),19.0599802,72.8436254
Mumbai,Maruti Book Depot,Not Listed,Mumbai,Not Listed,Prospect (Phase 1 B2B),19.0605771,72.8429602
Mumbai,Uttam Book Depot,Not Listed,Mumbai,Not Listed,Prospect (Phase 1 B2B),19.0604104,72.8430231
Mumbai,Local Stationery (Osm Ref),Not Listed,Mumbai,Not Listed,Prospect (Phase 1 B2B),19.0599351,72.8437405
Mumbai,Option print hub,Not Listed,Mumbai,Not Listed,Prospect (Phase 1 B2B),19.1118755,72.8751965
Mumbai,M M Jumbo Xerox,Not Listed,Mumbai,Not Listed,Prospect (Phase 1 B2B),19.0565098,72.8352182
Mumbai,Sagar Stationery & Xerox,+91 87795 34158;+91 93239 10031,Mumbai,Not Listed,Prospect (Phase 1 B2B),19.0548811,72.827542
Mumbai,Navrang Stores,Not Listed,Mumbai,Not Listed,Prospect (Phase 1 B2B),19.0540499,72.8325371
Mumbai,Rightway Computer Stationery and Xerox,Not Listed,Mumbai,Not Listed,Prospect (Phase 1 B2B),19.1296057,72.8221616
Mumbai,M/s N. K. SHAH,+917021777311,"St John Baptist Road, Mumbai",https://www.nkshah.co.in,Prospect (Phase 1 B2B),19.0478399,72.8259177
Mumbai,Asian Store,Not Listed,Mumbai,Not Listed,Prospect (Phase 1 B2B),19.0172759,72.8479814
Mumbai,Sagar Stationery Mart,Not Listed,"M C Chagla Road, Bamanwada, Mumbai",Not Listed,Prospect (Phase 1 B2B),19.1045007,72.8584338
Mumbai,Intop Stationers and Printers,+91 9372153036,Mumbai,Not Listed,Prospect (Phase 1 B2B),19.1368345,72.8296574
Mumbai,Jain Bandhu,Not Listed,Mumbai,Not Listed,Prospect (Phase 1 B2B),18.9514705,72.8285354
Mumbai,Jyoti Stores,Not Listed,Mumbai,Not Listed,Prospect (Phase 1 B2B),19.1719562,72.9417741
Mumbai,Local Stationery (Osm Ref),Not Listed,Mumbai,Not Listed,Prospect (Phase 1 B2B),19.1289999,72.9193034
Mumbai,Chedda Stationary Stores,Not Listed,Mumbai,Not Listed,Prospect (Phase 1 B2B),19.054999,72.8692035
Bengaluru,Printo,Not Listed,Bengaluru,Not Listed,Prospect (Phase 1 B2B),13.033221,77.5690234
Bengaluru,Printo,Not Listed,Bengaluru,Not Listed,Prospect (Phase 1 B2B),12.9357629,77.6219971
Bengaluru,Venkateshwara Stationary,Not Listed,Bengaluru,Not Listed,Prospect (Phase 1 B2B),12.9122041,77.5784992
Bengaluru,Surf In Cyber Cafe,Not Listed,Bengaluru,Not Listed,Prospect (Phase 1 B2B),12.9416536,77.6161121
Bengaluru,Print Express,Not Listed,Bengaluru,Not Listed,Prospect (Phase 1 B2B),12.9656404,77.6017608
Bengaluru,Nanjudeshwara Stationary,Not Listed,"Chord Road, Bangalore",Not Listed,Prospect (Phase 1 B2B),12.9710025,77.5369321
Bengaluru,VG Computers,Not Listed,Bengaluru,Not Listed,Prospect (Phase 1 B2B),12.8886588,77.5821115
Bengaluru,Krishna Stationery & Sports,Not Listed,Bengaluru,Not Listed,Prospect (Phase 1 B2B),12.88345,77.5829414
Bengaluru,Maharaja Stationery,Not Listed,Bengaluru,Not Listed,Prospect (Phase 1 B2B),12.8922282,77.5814135
Bengaluru,FedEx,Not Listed,Bengaluru,Not Listed,Prospect (Phase 1 B2B),12.9065354,77.5898784
Bengaluru,Sri Lakshmi Venkateshwara Stationery & Condiments,Not Listed,Bengaluru,Not Listed,Prospect (Phase 1 B2B),12.9796946,77.6393466
Bengaluru,Dhanya,Not Listed,Bengaluru,Not Listed,Prospect (Phase 1 B2B),12.9786044,77.6387723
Bengaluru,Oxford office solutions,Not Listed,Bengaluru,Not Listed,Prospect (Phase 1 B2B),12.9742587,77.6361742
Bengaluru,Sainath Enterprises,Not Listed,Bengaluru,Not Listed,Prospect (Phase 1 B2B),13.0075627,77.548131
Bengaluru,Printo,Not Listed,Bengaluru,https://printo.in/,Prospect (Phase 1 B2B),12.9780722,77.636543
Bengaluru,Ganesh Enterprises,Not Listed,Bengaluru,Not Listed,Prospect (Phase 1 B2B),12.9892765,77.5559234
Bengaluru,Sri Adhi Lakshmi,Not Listed,Bengaluru,Not Listed,Prospect (Phase 1 B2B),12.9450817,77.6242547
Bengaluru,Printo,Not Listed,Bengaluru,Not Listed,Prospect (Phase 1 B2B),13.0085167,77.5686473
Bengaluru,VRS Enterprises,Not Listed,Bengaluru,Not Listed,Prospect (Phase 1 B2B),13.0350481,77.5295547
Bengaluru,Campus Xerox Centre,Not Listed,Bengaluru,Not Listed,Prospect (Phase 1 B2B),13.0181463,77.5651172
Bengaluru,Printhouse,Not Listed,Bengaluru,Not Listed,Prospect (Phase 1 B2B),13.0018953,77.5724935
Bengaluru,S P Enterprises,Not Listed,Bengaluru,Not Listed,Prospect (Phase 1 B2B),12.8905953,77.582004
Bengaluru,FedEx,Not Listed,Bengaluru,Not Listed,Prospect (Phase 1 B2B),12.9591948,77.6528986
Bengaluru,Srinivas,Not Listed,Bengaluru,Not Listed,Prospect (Phase 1 B2B),13.0017109,77.6306979
Bengaluru,Mahadev Plastics and Stationers,Not Listed,Bengaluru,Not Listed,Prospect (Phase 1 B2B),12.957471,77.6551567
Bengaluru,Local Stationery (Osm Ref),Not Listed,Bengaluru,Not Listed,Prospect (Phase 1 B2B),12.9569028,77.6549803
Bengaluru,Printo,Not Listed,Bengaluru,https://printo.in/,Prospect (Phase 1 B2B),12.9202957,77.59682
Bengaluru,Balaji Xerox Shop,Not Listed,Bengaluru,Not Listed,Prospect (Phase 1 B2B),12.9461707,77.6289442
Bengaluru,Sairam Xerox,Not Listed,Bengaluru,Not Listed,Prospect (Phase 1 B2B),12.9452383,77.6289337
Bengaluru,Hingley Stationers,Not Listed,Bengaluru,Not Listed,Prospect (Phase 1 B2B),12.9789802,77.6413252
Bengaluru,Local Stationery (Osm Ref),Not Listed,Bengaluru,Not Listed,Prospect (Phase 1 B2B),13.036062,77.5317247
Bengaluru,Excellent Plus Stationery & Xerox,Not Listed,"Chinmaya Mission Hospital Road, Bengaluru",Not Listed,Prospect (Phase 1 B2B),12.9781149,77.6354032
Bengaluru,Stationery shop,Not Listed,Bengaluru,Not Listed,Prospect (Phase 1 B2B),12.9817773,77.6013942
Bengaluru,S N Colour Tech,Not Listed,Bengaluru,Not Listed,Prospect (Phase 1 B2B),13.0632562,77.5886973
Bengaluru,Parmar,+(91)-80-23496604,"Modi Hospital Main Road, Bangalore",Not Listed,Prospect (Phase 1 B2B),12.9977051,77.5495154
Bengaluru,Modern Enterprises,Not Listed,Bengaluru,Not Listed,Prospect (Phase 1 B2B),13.0244906,77.6032509
Bengaluru,Smita Info Solutions,Not Listed,Bengaluru,Not Listed,Prospect (Phase 1 B2B),13.0265617,77.6040589
Bengaluru,Limra Associates,Not Listed,Bengaluru,Not Listed,Prospect (Phase 1 B2B),13.0238759,77.6030622
Bengaluru,Mallige Printers,Not Listed,Bengaluru,Not Listed,Prospect (Phase 1 B2B),13.0244952,77.6032201
Bengaluru,Ravi's Cyber Cafe,Not Listed,Bengaluru,Not Listed,Prospect (Phase 1 B2B),13.0238453,77.6030488
Bengaluru,Wiliam Penn,08041127993,"15 Magrath Road, Bangalore",https://www.williampenn.net/,Prospect (Phase 1 B2B),12.9702937,77.6097845
Bengaluru,FedEx Office,+91-9986827831,"Marathahalli, Sarjapura outer ring road, Devarabisanahalli, Bellandur, Bangalore",www.fedex.com,Prospect (Phase 1 B2B),12.9321521,77.6861286
Bengaluru,Local Stationery (Osm Ref),Not Listed,Bengaluru,Not Listed,Prospect (Phase 1 B2B),12.9974074,77.548344
Bengaluru,Patel Fancy Store,Not Listed,Bengaluru,Not Listed,Prospect (Phase 1 B2B),12.9977215,77.5488179
Bengaluru,Local Copyshop (Osm Ref),Not Listed,"Dr. Vishnuvardhan Road, Bengaluru",Not Listed,Prospect (Phase 1 B2B),12.907239,77.5467928
Bengaluru,William Penn,Not Listed,Bengaluru,Not Listed,Prospect (Phase 1 B2B),12.9338103,77.6199863
Bengaluru,Local Copyshop (Osm Ref),Not Listed,Bengaluru,Not Listed,Prospect (Phase 1 B2B),12.9979157,77.5464283
Bengaluru,Local Stationery (Osm Ref),Not Listed,Bengaluru,Not Listed,Prospect (Phase 1 B2B),12.9434351,77.5655011
Bengaluru,Xerox,Not Listed,Bengaluru,Not Listed,Prospect (Phase 1 B2B),12.9383957,77.5925929
Bengaluru,Local Copyshop (Osm Ref),Not Listed,Bengaluru,Not Listed,Prospect (Phase 1 B2B),12.9244724,77.5882387
Bengaluru,D L Corner,Not Listed,Bengaluru,Not Listed,Prospect (Phase 1 B2B),12.9247702,77.4983835
Bengaluru,Apple Office Solutions,Not Listed,Bengaluru,Not Listed,Prospect (Phase 1 B2B),12.9222139,77.5000264
Bengaluru,Local Copyshop (Osm Ref),Not Listed,Bengaluru,Not Listed,Prospect (Phase 1 B2B),12.9222854,77.4999496
Bengaluru,Sri Lakshmi Devi Xerox,Not Listed,Bengaluru,Not Listed,Prospect (Phase 1 B2B),12.9269958,77.5880496
Bengaluru,Reeta Enterprises,Not Listed,Bengaluru,Not Listed,Prospect (Phase 1 B2B),12.9646721,77.6143585
Bengaluru,Sai Stores,Not Listed,Bengaluru,Not Listed,Prospect (Phase 1 B2B),12.9646664,77.6143244
Bengaluru,Xerox,Not Listed,Bengaluru,Not Listed,Prospect (Phase 1 B2B),12.9793827,77.6441634
Bengaluru,Zar Digital Prints,Not Listed,Bengaluru,Not Listed,Prospect (Phase 1 B2B),12.9920154,77.6042578
Bengaluru,Papergrid,Not Listed,Bengaluru,Not Listed,Prospect (Phase 1 B2B),12.9724819,77.6490819
Bengaluru,Sri Balaji Enterprices,Not Listed,Bengaluru,Not Listed,Prospect (Phase 1 B2B),12.9724783,77.6491054
Bengaluru,New Metro Fasion Stores,Not Listed,Bengaluru,Not Listed,Prospect (Phase 1 B2B),12.9726403,77.648343
Bengaluru,Sri Ganesha Stationeries,Not Listed,Bengaluru,Not Listed,Prospect (Phase 1 B2B),12.9985671,77.5553891
Bengaluru,Choice Fancy And Stationary,Not Listed,Bengaluru,Not Listed,Prospect (Phase 1 B2B),12.9318665,77.5890475
Bengaluru,Nag Stationery and Xerox,Not Listed,Bengaluru,Not Listed,Prospect (Phase 1 B2B),12.9387045,77.5523961
Bengaluru,"Sushreema Xerox, DTP",Not Listed,Bengaluru,Not Listed,Prospect (Phase 1 B2B),12.9385785,77.5529442
Bengaluru,Sharath Books and Stationaries,Not Listed,Bengaluru,Not Listed,Prospect (Phase 1 B2B),12.9387445,77.552102
Bengaluru,New Point Stationery World,Not Listed,Bengaluru,Not Listed,Prospect (Phase 1 B2B),12.9522467,77.5773751
Bengaluru,Local Copyshop (Osm Ref),Not Listed,Bengaluru,Not Listed,Prospect (Phase 1 B2B),12.9978134,77.5464292
Bengaluru,GMS,Not Listed,Bengaluru,Not Listed,Prospect (Phase 1 B2B),12.975905,77.6370864
Bengaluru,Hotel Dream Land,Not Listed,Bengaluru,Not Listed,Prospect (Phase 1 B2B),12.9248398,77.4985018
Bengaluru,I Net Centre,Not Listed,Bengaluru,Not Listed,Prospect (Phase 1 B2B),12.9745775,77.6393436
Bengaluru,Tanishka Xerox Centre,Not Listed,Bengaluru,Not Listed,Prospect (Phase 1 B2B),12.9970708,77.5484424
Bengaluru,KAP Stationery,Not Listed,Bengaluru,Not Listed,Prospect (Phase 1 B2B),12.9863494,77.5558101
Bengaluru,Sindhu Swadeshi Distribution Centre,Not Listed,Bengaluru,Not Listed,Prospect (Phase 1 B2B),12.9860005,77.5557914
Bengaluru,Local Copyshop (Osm Ref),Not Listed,Bengaluru,Not Listed,Prospect (Phase 1 B2B),12.9858665,77.5557679
Bengaluru,Shri Thrupti Real Estate,Not Listed,Bengaluru,Not Listed,Prospect (Phase 1 B2B),12.9898562,77.5555627
Bengaluru,Local Copyshop (Osm Ref),Not Listed,Bengaluru,Not Listed,Prospect (Phase 1 B2B),12.9884716,77.5558826
Bengaluru,Books & Books,Not Listed,Bengaluru,Not Listed,Prospect (Phase 1 B2B),12.9733273,77.6392533
Bengaluru,Monte Shoppe,Not Listed,Bengaluru,Not Listed,Prospect (Phase 1 B2B),12.9733336,77.6395554
Bengaluru,Sainath Office Needs,Not Listed,Bengaluru,Not Listed,Prospect (Phase 1 B2B),12.9742197,77.5751935
Bengaluru,Monissh Novelities,Not Listed,Bengaluru,Not Listed,Prospect (Phase 1 B2B),12.9749451,77.5758199
Bengaluru,SN Digital Xerox,Not Listed,Bengaluru,Not Listed,Prospect (Phase 1 B2B),12.997183,77.5484972
Bengaluru,Padam Book House,Not Listed,Bengaluru,Not Listed,Prospect (Phase 1 B2B),12.9976373,77.547335
Bengaluru,Stationery & General Stores,Not Listed,Bengaluru,Not Listed,Prospect (Phase 1 B2B),13.0174291,77.5625948
Bengaluru,Campus Xerox Centre,Not Listed,Bengaluru,Not Listed,Prospect (Phase 1 B2B),13.0176003,77.562692
Bengaluru,Local Copyshop (Osm Ref),Not Listed,Bengaluru,Not Listed,Prospect (Phase 1 B2B),12.9992963,77.5494391
Bengaluru,Xerox and print outs,Not Listed,Bengaluru,Not Listed,Prospect (Phase 1 B2B),12.8731213,77.6443212
Bengaluru,Local Copyshop (Osm Ref),Not Listed,Bengaluru,Not Listed,Prospect (Phase 1 B2B),12.964466,77.6136929
Bengaluru,Mount Stationery,Not Listed,Bengaluru,Not Listed,Prospect (Phase 1 B2B),12.9714909,77.6572328
Bengaluru,Kundapura Stationery,Not Listed,Bengaluru,Not Listed,Prospect (Phase 1 B2B),12.9719772,77.6534429
Bengaluru,Kishore Stationery,Not Listed,Bengaluru,Not Listed,Prospect (Phase 1 B2B),12.9750214,77.6790278
Bengaluru,Local Stationery (Osm Ref),Not Listed,Bengaluru,Not Listed,Prospect (Phase 1 B2B),12.9748468,77.6789407
Bengaluru,Mahadev Paper Mart,Not Listed,Bengaluru,Not Listed,Prospect (Phase 1 B2B),12.9723987,77.6533412
Bengaluru,Sri Vinayaka Enterprises,Not Listed,"1st Main, 2nd Cross, Kuvempu Nagar, Ramamurthy Nagar, Bangalore",Not Listed,Prospect (Phase 1 B2B),13.0078807,77.6708126
Bengaluru,Local Copyshop (Osm Ref),Not Listed,Bengaluru,Not Listed,Prospect (Phase 1 B2B),12.9245593,77.4981192
Bengaluru,Jumbo Xerox,Not Listed,Bengaluru,Not Listed,Prospect (Phase 1 B2B),12.9249933,77.4986637
Bengaluru,Shri Shirdi Sai Stationery,Not Listed,Bengaluru,Not Listed,Prospect (Phase 1 B2B),12.9135912,77.6067733
Bengaluru,Mathaji book center,Not Listed,Bengaluru,Not Listed,Prospect (Phase 1 B2B),13.0286524,77.5588569
Bengaluru,Sowbagya Enterprises,Not Listed,"21st Main Road, Bengaluru",Not Listed,Prospect (Phase 1 B2B),12.9682672,77.5335513
Bengaluru,Printouts and projects,Not Listed,Bengaluru,Not Listed,Prospect (Phase 1 B2B),13.0294938,77.5618421
Bengaluru,Sapthagiri Xerox,Not Listed,Bengaluru,Not Listed,Prospect (Phase 1 B2B),12.9867313,77.5797264
Bengaluru,Megha Xerox,Not Listed,Bengaluru,Not Listed,Prospect (Phase 1 B2B),12.9873315,77.5788718
Bengaluru,Local Copyshop (Osm Ref),Not Listed,Bengaluru,Not Listed,Prospect (Phase 1 B2B),13.0510029,77.6309757
Bengaluru,Color Curry,Not Listed,Bengaluru,Not Listed,Prospect (Phase 1 B2B),12.9876993,77.5547004
Bengaluru,Local Copyshop (Osm Ref),Not Listed,Bengaluru,Not Listed,Prospect (Phase 1 B2B),12.9937399,77.5884878
Bengaluru,Artzo,Not Listed,Bengaluru,https://www.artzo.in/,Prospect (Phase 1 B2B),12.9757456,77.6022593
Bengaluru,Printo,Not Listed,Bengaluru,Not Listed,Prospect (Phase 1 B2B),12.9189353,77.6514913
Bengaluru,Khaleda Stationary,Not Listed,Bengaluru,Not Listed,Prospect (Phase 1 B2B),12.9384007,77.6979761
Bengaluru,Local Copyshop (Osm Ref),Not Listed,Bengaluru,Not Listed,Prospect (Phase 1 B2B),12.9841291,77.5576642
Bengaluru,Local Copyshop (Osm Ref),Not Listed,Bengaluru,Not Listed,Prospect (Phase 1 B2B),13.0146264,77.5683562
Bengaluru,Dream Magic,Not Listed,Bengaluru,Not Listed,Prospect (Phase 1 B2B),12.9415544,77.6279345
Bengaluru,Xerox & Mobile Shop,Not Listed,Bengaluru,Not Listed,Prospect (Phase 1 B2B),12.9811714,77.6059779
Bengaluru,Bangalore Xerox Shop,Not Listed,"1st Cross Road, Bengaluru",Not Listed,Prospect (Phase 1 B2B),12.9352952,77.6305775
Bengaluru,Shivam Computer & Stationers,Not Listed,Bengaluru,Not Listed,Prospect (Phase 1 B2B),12.9607094,77.6460665
Bengaluru,Sri Krishna Books and Stationery,Not Listed,Bengaluru,Not Listed,Prospect (Phase 1 B2B),13.0644931,77.6486917
Bengaluru,Kolorkode,Not Listed,Bengaluru,Not Listed,Prospect (Phase 1 B2B),12.9655743,77.6032289
Bengaluru,Hitaish Tele Links,Not Listed,Bengaluru,Not Listed,Prospect (Phase 1 B2B),13.0042997,77.62308
Bengaluru,Hello Tele Links,Not Listed,Bengaluru,Not Listed,Prospect (Phase 1 B2B),13.0055213,77.6252264
Bengaluru,Student Xerox,Not Listed,Bengaluru,Not Listed,Prospect (Phase 1 B2B),12.8602333,77.5422604
Bengaluru,Printo,Not Listed,Bengaluru,Not Listed,Prospect (Phase 1 B2B),12.9943339,77.6155865
Bengaluru,Asha Cybernet,Not Listed,Bengaluru,Not Listed,Prospect (Phase 1 B2B),13.0059961,77.6236358
Bengaluru,Local Stationery (Osm Ref),Not Listed,Bengaluru,Not Listed,Prospect (Phase 1 B2B),12.958252,77.6011466
Bengaluru,Sri Kumara Stores,+91 90607 06020,"Chamrajpet 5th Main Road, Bengaluru",Not Listed,Prospect (Phase 1 B2B),12.957032,77.5656384
Bengaluru,Padmasri Digital Prints,Not Listed,Bengaluru,Not Listed,Prospect (Phase 1 B2B),12.9586402,77.566479
Bengaluru,Sun Prints,+91 94480 67224,"SV Narayanaswamy Rao Marg, Bengaluru",Not Listed,Prospect (Phase 1 B2B),12.9577327,77.568567
Bengaluru,Future Digital Color Press,Not Listed,Bengaluru,Not Listed,Prospect (Phase 1 B2B),12.9578645,77.5684456
Bengaluru,J K Xerox,Not Listed,Bengaluru,Not Listed,Prospect (Phase 1 B2B),12.9570772,77.5636008
Bengaluru,Girish Enterprises,Not Listed,Bengaluru,Not Listed,Prospect (Phase 1 B2B),12.9585978,77.5646841
Bengaluru,Bhairav Stationers,Not Listed,Bengaluru,Not Listed,Prospect (Phase 1 B2B),12.9588,77.5647589
Bengaluru,Shree Gopalakrishna Printing Press,Not Listed,Bengaluru,Not Listed,Prospect (Phase 1 B2B),12.9586869,77.5616576
Bengaluru,Chaitanya Graphics,Not Listed,Bengaluru,Not Listed,Prospect (Phase 1 B2B),12.958664,77.5610979
Bengaluru,Ravi's Stationary,Not Listed,Bengaluru,Not Listed,Prospect (Phase 1 B2B),13.0053463,77.5707366
Bengaluru,Saraswathi Xerox,Not Listed,Bengaluru,Not Listed,Prospect (Phase 1 B2B),13.0056409,77.5558235
Bengaluru,Sona Stationers,Not Listed,Bengaluru,Not Listed,Prospect (Phase 1 B2B),13.0632771,77.591221
Bengaluru,PrintQ,Not Listed,Bengaluru,Not Listed,Prospect (Phase 1 B2B),12.9131528,77.6325518
Bengaluru,Sagar Stationery,Not Listed,Bengaluru,Not Listed,Prospect (Phase 1 B2B),12.9182648,77.632111
Bengaluru,Sarayu Branding & Printing,+91 99800 71161,Bengaluru,https://sarayus.com,Prospect (Phase 1 B2B),12.9104903,77.5819683
Bengaluru,Stationery Palace,Not Listed,Bengaluru,Not Listed,Prospect (Phase 1 B2B),12.8889424,77.6257834
Bengaluru,Mari Swamy Xerox,Not Listed,Bengaluru,Not Listed,Prospect (Phase 1 B2B),12.9101758,77.5818113
Bengaluru,Ramdev Stationery,Not Listed,Bengaluru,Not Listed,Prospect (Phase 1 B2B),12.9103521,77.5818133
Bengaluru,Nandhi Xerox Center,Not Listed,Bengaluru,Not Listed,Prospect (Phase 1 B2B),12.8812676,77.545831
Bengaluru,Udupi Stationery Shop,Not Listed,Bengaluru,Not Listed,Prospect (Phase 1 B2B),12.9610487,77.5261786
Bengaluru,Local Copyshop (Osm Ref),Not Listed,Bengaluru,Not Listed,Prospect (Phase 1 B2B),12.9169736,77.5984763
Bengaluru,Paperkraft,Not Listed,Bengaluru,Not Listed,Prospect (Phase 1 B2B),12.9162505,77.6150687
Bengaluru,Satyam Office Suppliers,Not Listed,Bengaluru,Not Listed,Prospect (Phase 1 B2B),12.9374048,77.6266273
Bengaluru,Local Stationery (Osm Ref),Not Listed,Bengaluru,Not Listed,Prospect (Phase 1 B2B),12.9086091,77.6496322
Bengaluru,Local Copyshop (Osm Ref),Not Listed,Bengaluru,Not Listed,Prospect (Phase 1 B2B),12.9086019,77.6496924
Bengaluru,AS Mobile,Not Listed,Bengaluru,Not Listed,Prospect (Phase 1 B2B),12.9089526,77.6495364
Bengaluru,Prolink,Not Listed,Bengaluru,Not Listed,Prospect (Phase 1 B2B),12.9492483,77.5934342
Bengaluru,Aadhya Big Prints,+91 93433 33375,Bengaluru,Not Listed,Prospect (Phase 1 B2B),13.0950403,77.5775546
Bengaluru,Sri Krishna Printers,Not Listed,Bengaluru,Not Listed,Prospect (Phase 1 B2B),13.0958525,77.578513
Bengaluru,Sri Gurukripa Xerox And Print,+91 99805 24873,Bengaluru,Not Listed,Prospect (Phase 1 B2B),13.0948017,77.5770341
Bengaluru,Local Copyshop (Osm Ref),Not Listed,Bengaluru,Not Listed,Prospect (Phase 1 B2B),12.9998702,77.6194112
Bengaluru,CNU Digital Prints,Not Listed,Bengaluru,Not Listed,Prospect (Phase 1 B2B),12.9937126,77.5731581
Bengaluru,Sri Balaji Quality Prints,Not Listed,Bengaluru,Not Listed,Prospect (Phase 1 B2B),12.961585,77.6364805
Bengaluru,Moon Graphics,Not Listed,Bengaluru,Not Listed,Prospect (Phase 1 B2B),12.9784827,77.6300943
Bengaluru,Local Stationery (Osm Ref),Not Listed,Bengaluru,Not Listed,Prospect (Phase 1 B2B),12.918589,77.6705844
Bengaluru,Local Stationery (Osm Ref),Not Listed,Bengaluru,Not Listed,Prospect (Phase 1 B2B),12.9926625,77.591907
Bengaluru,Shivam Stationery world,Not Listed,Bengaluru,Not Listed,Prospect (Phase 1 B2B),12.9925746,77.5923708
Bengaluru,Net Galaxy,Not Listed,Bengaluru,Not Listed,Prospect (Phase 1 B2B),13.0579017,77.6440795
Bengaluru,Local Copyshop (Osm Ref),Not Listed,Bengaluru,Not Listed,Prospect (Phase 1 B2B),13.0578526,77.6437873
Bengaluru,Local Stationery (Osm Ref),Not Listed,Bengaluru,Not Listed,Prospect (Phase 1 B2B),12.9923802,77.5942697
Bengaluru,AS Sign Shop,9900699969,Bengaluru,https://assignshop.com/,Prospect (Phase 1 B2B),12.9041368,77.568103
Bengaluru,Kumar Fancy Store,Not Listed,Bengaluru,Not Listed,Prospect (Phase 1 B2B),12.9044006,77.5619464
Bengaluru,Shri Krishna Xerox,Not Listed,Bengaluru,Not Listed,Prospect (Phase 1 B2B),13.0080702,77.5710122
Bengaluru,Rachana Stationary,Not Listed,Bengaluru,Not Listed,Prospect (Phase 1 B2B),12.9561938,77.534029
Bengaluru,Sri Balaji General Store & Stationery,Not Listed,Bengaluru,Not Listed,Prospect (Phase 1 B2B),12.9654818,77.5383935
Bengaluru,Tupperware,Not Listed,Bengaluru,Not Listed,Prospect (Phase 1 B2B),13.0835905,77.5601301
Bengaluru,Cee Jay School Supplies,Not Listed,Bengaluru,Not Listed,Prospect (Phase 1 B2B),12.9993937,77.5501824
Bengaluru,Local Copyshop (Osm Ref),Not Listed,Bengaluru,Not Listed,Prospect (Phase 1 B2B),12.9870695,77.5950824
Bengaluru,Olympus Xerox,Not Listed,Bengaluru,Not Listed,Prospect (Phase 1 B2B),12.9834197,77.5958254
Bengaluru,i-Print,Not Listed,Bengaluru,Not Listed,Prospect (Phase 1 B2B),12.9208893,77.5971712
Bengaluru,Printo,Not Listed,Bengaluru,Not Listed,Prospect (Phase 1 B2B),12.967512,77.6066323
Bengaluru,goodgudi,Not Listed,Bengaluru,Not Listed,Prospect (Phase 1 B2B),12.9117593,77.6323451
Bengaluru,"Gayathri Prints, Ganesh Offset Printers Bangalore",09741320095,Bengaluru,https://www.gayathriprints.com/,Prospect (Phase 1 B2B),12.8973137,77.6420611
Bengaluru,Xerox & Stationary,Not Listed,Bengaluru,Not Listed,Prospect (Phase 1 B2B),12.9783429,77.6330507
Bengaluru,Prabhu Photos,Not Listed,Bengaluru,Not Listed,Prospect (Phase 1 B2B),12.973611,77.6077008
Bengaluru,Local Copyshop (Osm Ref),Not Listed,Bengaluru,Not Listed,Prospect (Phase 1 B2B),13.0190699,77.5575936
Bengaluru,Local Copyshop (Osm Ref),Not Listed,Bengaluru,Not Listed,Prospect (Phase 1 B2B),12.989113,77.5747176
Bengaluru,Local Copyshop (Osm Ref),Not Listed,Bengaluru,Not Listed,Prospect (Phase 1 B2B),13.0683507,77.5543466
Bengaluru,Highlighter Stationer,Not Listed,Bengaluru,Not Listed,Prospect (Phase 1 B2B),13.0692587,77.556181
Bengaluru,Sri Bhiraveshwara Stationey & General Stores,Not Listed,Bengaluru,Not Listed,Prospect (Phase 1 B2B),13.0682422,77.5544543
Bengaluru,Print Magic,Not Listed,Bengaluru,Not Listed,Prospect (Phase 1 B2B),13.0685551,77.5546256
Bengaluru,Printo,Not Listed,Bengaluru,Not Listed,Prospect (Phase 1 B2B),13.024283,77.6332341
Bengaluru,Pooja Fancy Store,Not Listed,Bengaluru,Not Listed,Prospect (Phase 1 B2B),13.0846766,77.5595449
Bengaluru,Local Copyshop (Osm Ref),Not Listed,Bengaluru,Not Listed,Prospect (Phase 1 B2B),12.9274047,77.5762771
Bengaluru,Sunil Raj Printers,Not Listed,Bengaluru,Not Listed,Prospect (Phase 1 B2B),12.9495651,77.5962737
Bengaluru,Local Copyshop (Osm Ref),Not Listed,Bengaluru,Not Listed,Prospect (Phase 1 B2B),12.9277651,77.5162915
Bengaluru,Wave Tech,Not Listed,"Brigade Road, Ashok Nagar, Bangalore",Not Listed,Prospect (Phase 1 B2B),12.9712003,77.6068405
Bengaluru,Unity Center,Not Listed,"Brigade Road, Ashok Nagar, Bangalore",Not Listed,Prospect (Phase 1 B2B),12.9704141,77.6065431
Bengaluru,Om Stationery and Snacks,Not Listed,Bengaluru,Not Listed,Prospect (Phase 1 B2B),12.9243848,77.5782994
Bengaluru,Flex Banner Print Shop,Not Listed,Bengaluru,Not Listed,Prospect (Phase 1 B2B),12.9785655,77.6297418
Bengaluru,Sri Venkateshwara Printer Cafe,Not Listed,Bengaluru,Not Listed,Prospect (Phase 1 B2B),12.9582837,77.6594483
Bengaluru,Sri Lakshmi Narsimha Enterprises,Not Listed,Bengaluru,Not Listed,Prospect (Phase 1 B2B),12.958215,77.6595917
Bengaluru,Om Cyber Cafe,Not Listed,Bengaluru,Not Listed,Prospect (Phase 1 B2B),12.9587227,77.6595972
Bengaluru,Sagar Xerox,Not Listed,Bengaluru,Not Listed,Prospect (Phase 1 B2B),12.939824,77.5641288
Bengaluru,New Delight Shop,Not Listed,Bengaluru,Not Listed,Prospect (Phase 1 B2B),12.9767936,77.590082
Bengaluru,Sri Sai Enterprises,Not Listed,"2nd Main Road, Bengaluru",Not Listed,Prospect (Phase 1 B2B),12.9767936,77.590082
Ahmedabad,Skyblue,Not Listed,Ahmedabad,Not Listed,Prospect (Phase 1 B2B),23.0164623,72.4690582
Ahmedabad,Hello Stationary services,Not Listed,Ahmedabad,Not Listed,Prospect (Phase 1 B2B),23.108341,72.5827474
Ahmedabad,My Stationaries,Not Listed,Ahmedabad,Not Listed,Prospect (Phase 1 B2B),23.1095409,72.5938955
Ahmedabad,Hello Stationary services,Not Listed,Ahmedabad,Not Listed,Prospect (Phase 1 B2B),23.0215374,72.5800568
